{"name":"CoolingCenters","type":"FeatureCollection"
,"features":[
{"type":"Feature","geometry":{"type":"Point","coordinates":[-90.3086780000132,38.6962429998058,0]},"properties":{"Name":"St Vincent Park - Community Center","FolderPath":"2011 Cooling Centers","SymbolID":0,"AltitudeMode":-1,"Snippet":"","PopupInfo":"Cooling Center Status:  ACTIVE<br>Open 9am - 9pm. Mon-Thu. 9am - 6pm Sat. Noon - 6pm Sun.<br>St Louis County.<br>","Accessible":2,"Hours":"Open 9am - 9pm. Mon-Thu. 9am - 6pm Sat. Noon - 6pm Sun.","Address":null,"City":null,"State":null,"Phone":null,"Restrictions":null,"ZIP":63121}}
,{"type":"Feature","geometry":{"type":"Point","coordinates":[-90.2482220000174,38.7817309998001,0]},"properties":{"Name":"Veteran's Memorial Park (North County Recreation Complex)","FolderPath":"2011 Cooling Centers","SymbolID":0,"AltitudeMode":-1,"Snippet":"","PopupInfo":"Cooling Center Status: ACTIVE.<br>Open 8am - 9pm Mon-Thu. 8am - 6pm Sat. Noon - 6pm Sun.<br>St Louis County.","Accessible":2,"Hours":"Open 8am - 9pm Mon-Thu. 8am - 6pm Sat. Noon - 6pm Sun.","Address":null,"City":null,"State":null,"Phone":null,"Restrictions":null,"ZIP":63136}}
,{"type":"Feature","geometry":{"type":"Point","coordinates":[-90.183655000022,38.8929899997926,0]},"properties":{"Name":"Salvation Army - Alton","FolderPath":"2011 Cooling Centers","SymbolID":1,"AltitudeMode":-1,"Snippet":"","PopupInfo":"Accessible Cooling Center.<br>Open 8am-4:30pm M-F.","Accessible":1,"Hours":"8am-4:30pm M-F.","Address":"525 Alby st","City":"Alton","State":"IL","Phone":"6184657764","Restrictions":"Cancelled","ZIP":62002}}
,{"type":"Feature","geometry":{"type":"Point","coordinates":[-90.1763460000225,38.9253539997904,0]},"properties":{"Name":"Alton Square Mall","FolderPath":"2011 Cooling Centers","SymbolID":0,"AltitudeMode":-1,"Snippet":"","PopupInfo":"Cooling Center.<br>Open 7am-9:30pm Mon-Sat. 7am - 6pm Sun.<br>","Accessible":2,"Hours":"7am-9:30pm M-Sa. 7am - 6pm Su.","Address":null,"City":null,"State":null,"Phone":null,"Restrictions":"Cancelled","ZIP":62002}}
,{"type":"Feature","geometry":{"type":"Point","coordinates":[-90.040535000032,38.9105029997915,0]},"properties":{"Name":"Bethalto Village Hall","FolderPath":"2011 Cooling Centers","SymbolID":0,"AltitudeMode":-1,"Snippet":"","PopupInfo":"Cooling Center.<br>Open 8am-5pm M-F.<br>","Accessible":2,"Hours":"8am-5pm M-F.","Address":"213 N Prairie St","City":"Bethalo","State":"IL","Phone":"6183778051","Restrictions":"Shelter can also be opened on weekends. Contact dispatch on duty at (618)377-5266.","ZIP":62010}}
,{"type":"Feature","geometry":{"type":"Point","coordinates":[-90.4008180000069,39.304469999765,0]},"properties":{"Name":"Greene County Human Services","FolderPath":"2011 Cooling Centers","SymbolID":0,"AltitudeMode":-1,"Snippet":"","PopupInfo":"Cooling Center.<br>Open 8:30am-5:30pm M-F.<br>","Accessible":2,"Hours":"8:30am-5:30pm M-F.","Address":"145 E Walnut","City":"Carrollton","State":"IL","Phone":"2179426907","Restrictions":null,"ZIP":62016}}
,{"type":"Feature","geometry":{"type":"Point","coordinates":[-90.1180270000266,38.8824579997934,0]},"properties":{"Name":"Madison County Human Services","FolderPath":"2011 Cooling Centers","SymbolID":0,"AltitudeMode":-1,"Snippet":"","PopupInfo":"Cooling Center.<br>Open 8:30am-5pm M-F.<br>","Accessible":2,"Hours":"Open 8:30am-5pm M-F.","Address":"608 W St Louis Ave","City":"East Alton","State":"IL","Phone":"6182581660","Restrictions":null,"ZIP":62024}}
,{"type":"Feature","geometry":{"type":"Point","coordinates":[-90.1936110000213,38.9686999997876,0]},"properties":{"Name":"Village of Godfrey","FolderPath":"2011 Cooling Centers","SymbolID":1,"AltitudeMode":-1,"Snippet":"","PopupInfo":"Accessible Cooling Center.<br>Open 8am-5pm M-F.<br>","Accessible":1,"Hours":"Open 8am-5pm M-F.","Address":null,"City":null,"State":null,"Phone":null,"Restrictions":"Cancelled","ZIP":62035}}
,{"type":"Feature","geometry":{"type":"Point","coordinates":[-90.097290000028,38.7627529998014,0]},"properties":{"Name":"Chouteau Township Offices","FolderPath":"2011 Cooling Centers","SymbolID":1,"AltitudeMode":-1,"Snippet":"","PopupInfo":"Accessible Cooling Center.<br>Open 9am-4pm M-F.<br>","Accessible":1,"Hours":"Open 9am-4pm M-F.","Address":"906 Thorngate Dr","City":"Granite City","State":"IL","Phone":"6189310360","Restrictions":null,"ZIP":62040}}
,{"type":"Feature","geometry":{"type":"Point","coordinates":[-90.1487730000243,38.7029189998054,0]},"properties":{"Name":"Granite City Township Offices","FolderPath":"2011 Cooling Centers","SymbolID":0,"AltitudeMode":-1,"Snippet":"","PopupInfo":"Cooling Center.<br>Open 8:30am-4:30pm Mon-Thu. 8:30am-3:15pm Fri.","Accessible":2,"Hours":"Open 8:30am-4:30pm M-Th. 8:30am-3:15pm F.","Address":"2060 A Delmar Ave","City":"Granite City","State":"IL","Phone":"6188770513","Restrictions":null,"ZIP":62040}}
,{"type":"Feature","geometry":{"type":"Point","coordinates":[-90.1477580000244,38.6986809998057,0]},"properties":{"Name":"Granite City Human Services","FolderPath":"2011 Cooling Centers","SymbolID":0,"AltitudeMode":-1,"Snippet":"","PopupInfo":"Cooling Center.<br>Open 8:30am-5:30pm M-F.<br>","Accessible":2,"Hours":"Open 8:30am-5:30pm M-F.","Address":"1925 Madison Ave","City":"Granite City","State":"IL","Phone":"6188779200","Restrictions":null,"ZIP":62040}}
,{"type":"Feature","geometry":{"type":"Point","coordinates":[-90.1198880000263,38.7022289998055,0]},"properties":{"Name":"Salvation Army Southwest Madison County","FolderPath":"2011 Cooling Centers","SymbolID":0,"AltitudeMode":-1,"Snippet":"","PopupInfo":"Cooling Center.<br>Open 9am-12pm and 1pm-4pm M-F.<br><br>3007 E 23rd St<br>Granit City, IL 62040<br>(618) 451-7957","Accessible":2,"Hours":"Open 9am-12pm and 1pm-4pm M-F.","Address":null,"City":null,"State":null,"Phone":null,"Restrictions":"Cancelled","ZIP":62040}}
,{"type":"Feature","geometry":{"type":"Point","coordinates":[-89.8497540000452,38.8881719997931,0]},"properties":{"Name":"Hamel Senior Citizens Center","FolderPath":"2011 Cooling Centers","SymbolID":1,"AltitudeMode":-1,"Snippet":"","PopupInfo":"Accessible Cooling Center.<br>ID Required.<br>Open 7am-6pm M-F.<br><br>10 Park Ave<br>Hamel, IL 62025<br>(618) 633-2484","Accessible":1,"Hours":"Open 7am-6pm M-F.","Address":null,"City":null,"State":null,"Phone":null,"Restrictions":"Cancelled","ZIP":62025}}
,{"type":"Feature","geometry":{"type":"Point","coordinates":[-90.326996000012,39.1201709997773,0]},"properties":{"Name":"Jersey and Calhoun County Human Services","FolderPath":"2011 Cooling Centers","SymbolID":0,"AltitudeMode":-1,"Snippet":"","PopupInfo":"Cooling Center.<br>Open 8:30am-5:30pm M-F.<br>","Accessible":2,"Hours":"Open 8:30am-5pm M-F.","Address":"110 N Jefferson St","City":"Jerseyville","State":"IL","Phone":"6184982105","Restrictions":null,"ZIP":62052}}
,{"type":"Feature","geometry":{"type":"Point","coordinates":[-90.0980530000279,38.8687669997943,0]},"properties":{"Name":"Wood River Roundhouse","FolderPath":"2011 Cooling Centers","SymbolID":1,"AltitudeMode":-1,"Snippet":"","PopupInfo":"Accessible Cooling Center.<br>Open 8am-12pm & 1pm-5pm Mon-Fri.<br>","Accessible":1,"Hours":"Open 8am-12pm & 1pm-5pm Mon-Fri.","Address":null,"City":null,"State":null,"Phone":null,"Restrictions":null,"ZIP":62095}}
,{"type":"Feature","geometry":{"type":"Point","coordinates":[-90.1702120000228,38.6287459998104,0]},"properties":{"Name":"City of East St Louis","FolderPath":"2011 Cooling Centers","SymbolID":0,"AltitudeMode":-1,"Snippet":"","PopupInfo":"Cooling Center.<br>Open 9am-4pm M-F.<br>","Accessible":2,"Hours":"Open 9am-4pm M-F.","Address":null,"City":null,"State":null,"Phone":null,"Restrictions":null,"ZIP":62201}}
,{"type":"Feature","geometry":{"type":"Point","coordinates":[-90.1074910000272,38.6452519998093,0]},"properties":{"Name":"Fairmont City Hall","FolderPath":"2011 Cooling Centers","SymbolID":0,"AltitudeMode":-1,"Snippet":"","PopupInfo":"Cooling Center.<br>Open 8am-4pm M-F.<br>","Accessible":2,"Hours":"Open 8am-4pm M-F.","Address":null,"City":null,"State":null,"Phone":null,"Restrictions":null,"ZIP":62201}}
,{"type":"Feature","geometry":{"type":"Point","coordinates":[-90.1549680000239,38.6235469998107,0]},"properties":{"Name":"St Clair County Human Services","FolderPath":"2011 Cooling Centers","SymbolID":0,"AltitudeMode":-1,"Snippet":"","PopupInfo":"Cooling Center.<br>Open 8:30am-5:30pm M-F.<br>","Accessible":2,"Hours":"Open 8:30am-5:30pm M-F.","Address":null,"City":null,"State":null,"Phone":null,"Restrictions":null,"ZIP":62201}}
,{"type":"Feature","geometry":{"type":"Point","coordinates":[-90.1617430000234,38.6253279998106,0]},"properties":{"Name":"Division of Rehabilitation Services East St Louis","FolderPath":"2011 Cooling Centers","SymbolID":0,"AltitudeMode":-1,"Snippet":"","PopupInfo":"Cooling Center.<br>Open 8:30am-5:30pm M-F.<br>","Accessible":2,"Hours":"Open 8:30am-5:30pm M-F.","Address":null,"City":null,"State":null,"Phone":null,"Restrictions":null,"ZIP":62201}}
,{"type":"Feature","geometry":{"type":"Point","coordinates":[-90.080994000029,38.6011959998123,0]},"properties":{"Name":"Clyde C Jordan Senior Citizens Center","FolderPath":"2011 Cooling Centers","SymbolID":1,"AltitudeMode":-1,"Snippet":"","PopupInfo":"Accessible Cooling Site.<br>Open 8am-4pm M-F.<br>","Accessible":1,"Hours":"Open 8am-4pm M-F.","Address":null,"City":null,"State":null,"Phone":null,"Restrictions":null,"ZIP":62203}}
,{"type":"Feature","geometry":{"type":"Point","coordinates":[-90.1109920000269,38.6241719998107,0]},"properties":{"Name":"Continuum of Life Care Center","FolderPath":"2011 Cooling Centers","SymbolID":0,"AltitudeMode":-1,"Snippet":"","PopupInfo":"Cooling Center.<br>Open 9am-2pm M-F.<br>","Accessible":2,"Hours":"Open 9am-2pm M-F.","Address":null,"City":null,"State":null,"Phone":null,"Restrictions":null,"ZIP":62204}}
,{"type":"Feature","geometry":{"type":"Point","coordinates":[-90.0946580000281,38.63509799981,0]},"properties":{"Name":"Washington Park City Hall","FolderPath":"2011 Cooling Centers","SymbolID":0,"AltitudeMode":-1,"Snippet":"","PopupInfo":"Cooling Center.<br>Open 9am-5pm M-F.<br>","Accessible":2,"Hours":"Open 9am-5pm M-F.","Address":null,"City":null,"State":null,"Phone":null,"Restrictions":null,"ZIP":62204}}
,{"type":"Feature","geometry":{"type":"Point","coordinates":[-90.1352770000252,38.6323849998102,0]},"properties":{"Name":"Lessie Bates Davis Neighborhood House","FolderPath":"2011 Cooling Centers","SymbolID":0,"AltitudeMode":-1,"Snippet":"","PopupInfo":"Cooling Center.<br>Open 9am-5pm M-F.<br>","Accessible":2,"Hours":"Open 9am-5pm M-F.","Address":null,"City":null,"State":null,"Phone":null,"Restrictions":null,"ZIP":62205}}
,{"type":"Feature","geometry":{"type":"Point","coordinates":[-90.1113130000269,38.6284869998105,0]},"properties":{"Name":"Holy Angels Shelter","FolderPath":"2011 Cooling Centers","SymbolID":0,"AltitudeMode":-1,"Snippet":"","PopupInfo":"Cooling Center.<br>Open 8am-8pm M-F.<br>","Accessible":2,"Hours":"Open 8am-8pm M-F.","Address":null,"City":null,"State":null,"Phone":null,"Restrictions":"ID Required. 55 years and older only.","ZIP":62204}}
,{"type":"Feature","geometry":{"type":"Point","coordinates":[-90.1377560000251,38.6240459998107,0]},"properties":{"Name":"Salvation Army - East St Louis","FolderPath":"2011 Cooling Centers","SymbolID":0,"AltitudeMode":-1,"Snippet":"","PopupInfo":"Cooling Center.<br>Open 9am-4pm M-F.<br>ID Required<br>","Accessible":2,"Hours":"Open 9am-4pm M-F.","Address":null,"City":null,"State":null,"Phone":null,"Restrictions":null,"ZIP":62205}}
,{"type":"Feature","geometry":{"type":"Point","coordinates":[-90.123245000026,38.5800479998137,0]},"properties":{"Name":"Callie Boyd Community Center","FolderPath":"2011 Cooling Centers","SymbolID":0,"AltitudeMode":-1,"Snippet":"","PopupInfo":"Cooling Center.<br>Open 9am-4pm M-F.<br>","Accessible":2,"Hours":"Open 9am-4pm M-F.","Address":null,"City":null,"State":null,"Phone":null,"Restrictions":"Cancelled","ZIP":62207}}
,{"type":"Feature","geometry":{"type":"Point","coordinates":[-90.1195600000263,38.5815579998136,0]},"properties":{"Name":"Centreville Township","FolderPath":"2011 Cooling Centers","SymbolID":0,"AltitudeMode":-1,"Snippet":"","PopupInfo":"Cooling Center.<br>Open 8:30am-5pm M-F.<br>(618) 874-1034","Accessible":2,"Hours":"Open 8:30am-5pm M-F.","Address":"4831 Bond Ave","City":"East St Louis","State":"IL","Phone":"6188741034","Restrictions":null,"ZIP":62207}}
,{"type":"Feature","geometry":{"type":"Point","coordinates":[-90.1420520000248,38.6018139998122,0]},"properties":{"Name":"Mt Zion Missionary Baptist Church","FolderPath":"2011 Cooling Centers","SymbolID":0,"AltitudeMode":-1,"Snippet":"","PopupInfo":"Cooling Center.<br>Open 8am-4pm M-F.<br>","Accessible":2,"Hours":"Open 8am-4pm M-F.","Address":null,"City":null,"State":null,"Phone":null,"Restrictions":null,"ZIP":62207}}
,{"type":"Feature","geometry":{"type":"Point","coordinates":[-90.0120160000338,38.5998499998124,0]},"properties":{"Name":"Caseyville General Assistance","FolderPath":"2011 Cooling Centers","SymbolID":0,"AltitudeMode":-1,"Snippet":"","PopupInfo":"Cooling Center.<br>Open 8am-5pm M-F.<br>","Accessible":2,"Hours":"Open 8am-5pm M-F.","Address":"10001 Bunkum Rd","City":"Fairview Heights","State":"IL","Phone":"6183986248","Restrictions":null,"ZIP":62208}}
,{"type":"Feature","geometry":{"type":"Point","coordinates":[-89.9832380000357,38.5075649998186,0]},"properties":{"Name":"Department of Rehabilitation Services Belleville","FolderPath":"2011 Cooling Centers","SymbolID":0,"AltitudeMode":-1,"Snippet":"","PopupInfo":"Cooling Center.<br>Open 8:30am-5:30pm M-F.<br>","Accessible":2,"Hours":"Open 8:30am-5:30pm M-F.","Address":null,"City":null,"State":null,"Phone":null,"Restrictions":null,"ZIP":62220}}
,{"type":"Feature","geometry":{"type":"Point","coordinates":[-89.9805680000359,38.5158689998181,0]},"properties":{"Name":"Programs and Services for Older Persons- Southwestern Illinois College","FolderPath":"2011 Cooling Centers","SymbolID":0,"AltitudeMode":-1,"Snippet":"","PopupInfo":"Cooling Center.<br>Open 8am-4pm M-F.<br>55 years and older only.","Accessible":2,"Hours":"Open 8am-4pm M-F.","Address":null,"City":null,"State":null,"Phone":null,"Restrictions":null,"ZIP":62220}}
,{"type":"Feature","geometry":{"type":"Point","coordinates":[-90.0122600000337,38.5290339998171,0]},"properties":{"Name":"Salvation Army - Belleville Corps","FolderPath":"2011 Cooling Centers","SymbolID":1,"AltitudeMode":-1,"Snippet":"","PopupInfo":"Accessible Cooling Center.<br>Open 9am-4pm M-TH.<br>Operation Weather Survival.<br><br>20 Glory Place<br>Belleville, IL 62226-6301<br>(618) 235-7378<br><a href=\"http://salvationarmyusa.org\">salvationarmyusa.org</a>","Accessible":1,"Hours":"Open 9am-4pm M-TH.","Address":null,"City":null,"State":null,"Phone":null,"Restrictions":null,"ZIP":62226}}
,{"type":"Feature","geometry":{"type":"Point","coordinates":[-89.3719710000781,38.6166229998116,0]},"properties":{"Name":"Clinton County Human Services","FolderPath":"2011 Cooling Centers","SymbolID":0,"AltitudeMode":-1,"Snippet":"","PopupInfo":"Cooling Center.<br>Open 8:30am-5:30pm M-F.<br>","Accessible":2,"Hours":"Open 8:30am-5:30pm M-F.","Address":null,"City":null,"State":null,"Phone":null,"Restrictions":null,"ZIP":62231}}
,{"type":"Feature","geometry":{"type":"Point","coordinates":[-89.8346860000456,37.921920999858,0]},"properties":{"Name":"Randolph and Monroe County Human Services","FolderPath":"2011 Cooling Centers","SymbolID":0,"AltitudeMode":-1,"Snippet":"","PopupInfo":"Cooling Center.<br>Open 8:30am-5:30pm M-F.<br>","Accessible":2,"Hours":"Open 8:30am-5:30pm M-F.","Address":null,"City":null,"State":null,"Phone":null,"Restrictions":null,"ZIP":62233}}
,{"type":"Feature","geometry":{"type":"Point","coordinates":[-89.9832690000358,38.6709179998076,0]},"properties":{"Name":"Collinsville Senior Citizens Center","FolderPath":"2011 Cooling Centers","SymbolID":1,"AltitudeMode":-1,"Snippet":"","PopupInfo":"Accessible Cooling Center.<br>Open 8am-4:30pm M-F.","Accessible":1,"Hours":"Open 8am-4:30pm M-F.","Address":null,"City":null,"State":null,"Phone":null,"Restrictions":null,"ZIP":62234}}
,{"type":"Feature","geometry":{"type":"Point","coordinates":[-89.6745610000573,38.726474999804,0]},"properties":{"Name":"Faith Countryside Homes","FolderPath":"2011 Cooling Centers","SymbolID":1,"AltitudeMode":-1,"Snippet":"","PopupInfo":"Accessible Cooling Center.<br>Open 8am-4:30pm M-F.<br>","Accessible":1,"Hours":"Open 8am-4:30pm M-F.","Address":null,"City":null,"State":null,"Phone":null,"Restrictions":null,"ZIP":62249}}
,{"type":"Feature","geometry":{"type":"Point","coordinates":[-89.677979000057,38.7404289998031,0]},"properties":{"Name":"Weinheimer Community Center","FolderPath":"2011 Cooling Centers","SymbolID":0,"AltitudeMode":-1,"Snippet":"","PopupInfo":"Cooling Center.<br>Open 8am-10pm M-F (as needed).<br>","Accessible":2,"Hours":"Open 8am-10pm M-F (as needed).","Address":null,"City":null,"State":null,"Phone":null,"Restrictions":null,"ZIP":62249}}
,{"type":"Feature","geometry":{"type":"Point","coordinates":[-89.807045000048,38.6022719998123,0]},"properties":{"Name":"St Paul's United Church of Christ","FolderPath":"2011 Cooling Centers","SymbolID":0,"AltitudeMode":-1,"Snippet":"","PopupInfo":"Cooling Center.<br>Open 8:30am-4:30pm M-F.<br>","Accessible":2,"Hours":"Open 8:30am-4:30pm M-F.","Address":null,"City":null,"State":null,"Phone":null,"Restrictions":null,"ZIP":62254}}
,{"type":"Feature","geometry":{"type":"Point","coordinates":[-89.892982000042,38.5961529998127,0]},"properties":{"Name":"City of O'Fallon","FolderPath":"2011 Cooling Centers","SymbolID":0,"AltitudeMode":-1,"Snippet":"","PopupInfo":"Cooling Center.<br>Open 7am-9pm M-F.<br>","Accessible":2,"Hours":"Open 7am-9pm M-F.","Address":null,"City":null,"State":null,"Phone":null,"Restrictions":null,"ZIP":62269}}
,{"type":"Feature","geometry":{"type":"Point","coordinates":[-89.8903270000423,38.7298159998037,0]},"properties":{"Name":"Jarvis Township Senior Center","FolderPath":"2011 Cooling Centers","SymbolID":0,"AltitudeMode":-1,"Snippet":"","PopupInfo":"Cooling Center.<br>Open 9am-3pm M-F.<br>","Accessible":2,"Hours":"Open 9am-3pm M-F.","Address":null,"City":null,"State":null,"Phone":null,"Restrictions":null,"ZIP":62294}}
,{"type":"Feature","geometry":{"type":"Point","coordinates":[-89.8762440000437,39.2931859997659,0]},"properties":{"Name":"Macoupin County Human Services","FolderPath":"2011 Cooling Centers","SymbolID":0,"AltitudeMode":-1,"Snippet":"","PopupInfo":"Cooling Center.<br>Open 8:30am-5pm M-F.<br>","Accessible":2,"Hours":"Open 8:30am-5pm M-F.","Address":null,"City":null,"State":null,"Phone":null,"Restrictions":null,"ZIP":62626}}
,{"type":"Feature","geometry":{"type":"Point","coordinates":[-90.3738560000087,38.4060019998253,0]},"properties":{"Name":"Salvation Army - Arnold Corps","FolderPath":"2011 Cooling Centers","SymbolID":1,"AltitudeMode":-1,"Snippet":"","PopupInfo":"Accessible Cooling Center.<br>ID Required.<br>Open 8:30am-4:30pm M-F.","Accessible":1,"Hours":"Open 8:30am-4:30pm M-F.","Address":null,"City":null,"State":null,"Phone":null,"Restrictions":null,"ZIP":63010}}
,{"type":"Feature","geometry":{"type":"Point","coordinates":[-90.4018400000067,38.4430429998229,0]},"properties":{"Name":"Arnold Senior Center - MEAAA","FolderPath":"2011 Cooling Centers","SymbolID":1,"AltitudeMode":-1,"Snippet":"","PopupInfo":"Accessible Cooling Center.<br>SENIORS ONLY<br>Open 10am-1pm M-F.<br>","Accessible":1,"Hours":"Open 10am-1pm M-F.","Address":"1695 Missouri State Rd","City":"Arnold","State":"MO","Phone":"6362960475","Restrictions":null,"ZIP":63010}}
,{"type":"Feature","geometry":{"type":"Point","coordinates":[-90.5243379999983,38.5942759998127,0]},"properties":{"Name":"West County Senior Center - MEAAA","FolderPath":"2011 Cooling Centers","SymbolID":1,"AltitudeMode":-1,"Snippet":"","PopupInfo":"Accessible Cooling Center<br>Open 9am-3pm M-F.","Accessible":1,"Hours":"Open 9am-3pm M-F.","Address":null,"City":null,"State":null,"Phone":null,"Restrictions":null,"ZIP":63011}}
,{"type":"Feature","geometry":{"type":"Point","coordinates":[-90.3801800000082,38.218268999838,0]},"properties":{"Name":"Quad Cities Senior Center - MEAAA","FolderPath":"2011 Cooling Centers","SymbolID":1,"AltitudeMode":-1,"Snippet":"","PopupInfo":"Accessible Cooling Center.<br>Open 9am-3pm M-F.","Accessible":1,"Hours":"Open 9am-3pm M-F.","Address":null,"City":null,"State":null,"Phone":null,"Restrictions":null,"ZIP":63019}}
,{"type":"Feature","geometry":{"type":"Point","coordinates":[-90.5640109999955,38.1090849998453,0]},"properties":{"Name":"Knights of Columbus - MEAAA","FolderPath":"2011 Cooling Centers","SymbolID":0,"AltitudeMode":-1,"Snippet":"","PopupInfo":"Cooling Center.<br>Open 9am-3pm M-F.","Accessible":2,"Hours":"Open 9am-3pm M-F.","Address":null,"City":null,"State":null,"Phone":null,"Restrictions":null,"ZIP":63020}}
,{"type":"Feature","geometry":{"type":"Point","coordinates":[-90.4013750000068,38.7469439998024,0]},"properties":{"Name":"Bridgeton Senior Center - MEAAA","FolderPath":"2011 Cooling Centers","SymbolID":1,"AltitudeMode":-1,"Snippet":"","PopupInfo":"Accessible Cooling Center.<br>ID Required.<br>Open 9am-3pm M-F.","Accessible":1,"Hours":"Open 9am-3pm M-F.","Address":"4201 Fee Fee Rd","City":"Bridgeton","State":"MO","Phone":"3147395572","Restrictions":null,"ZIP":63044}}
,{"type":"Feature","geometry":{"type":"Point","coordinates":[-90.5339739999976,38.4638059998214,0]},"properties":{"Name":"High Ridge Senior Center - MEAAA","FolderPath":"2011 Cooling Centers","SymbolID":0,"AltitudeMode":-1,"Snippet":"","PopupInfo":"Cooling Center.<br>Open 9am-3pm M-F.","Accessible":2,"Hours":"Open 9am-3pm M-F.","Address":null,"City":null,"State":null,"Phone":null,"Restrictions":null,"ZIP":63049}}
,{"type":"Feature","geometry":{"type":"Point","coordinates":[-90.5391769999972,38.4509349998224,0]},"properties":{"Name":"Feed My People","FolderPath":"2011 Cooling Centers","SymbolID":0,"AltitudeMode":-1,"Snippet":"","PopupInfo":"Cooling Center.<br>Open 10am-2:30pm Tue-Fri.<br>9am-1pm Sat.","Accessible":2,"Hours":"Open 10am-2:30pm Tue-Fri.","Address":null,"City":null,"State":null,"Phone":null,"Restrictions":null,"ZIP":63049}}
,{"type":"Feature","geometry":{"type":"Point","coordinates":[-90.7415699999833,38.4831159998202,0]},"properties":{"Name":"St Bridget of Kildare","FolderPath":"2011 Cooling Centers","SymbolID":0,"AltitudeMode":-1,"Snippet":"","PopupInfo":"Cooling Center.<br>Open 8am-6pm M-F.<br>Call in advance.","Accessible":2,"Hours":"Open 8am-6pm M-F.","Address":null,"City":null,"State":null,"Phone":null,"Restrictions":null,"ZIP":63069}}
,{"type":"Feature","geometry":{"type":"Point","coordinates":[-90.3906330000075,38.2811739998338,0]},"properties":{"Name":"Jefferson County Rescue Mission","FolderPath":"2011 Cooling Centers","SymbolID":1,"AltitudeMode":-1,"Snippet":"","PopupInfo":"Accessible Cooling Center<br>Open 9:30am-8:30pm M-F.<br> 2pm-8pm Sat-Sun.","Accessible":1,"Hours":"Open 9:30am-8:30pm M-F.","Address":null,"City":null,"State":null,"Phone":null,"Restrictions":null,"ZIP":63070}}
,{"type":"Feature","geometry":{"type":"Point","coordinates":[-90.9786829999669,38.3487509998292,0]},"properties":{"Name":"St Clair Senior Center","FolderPath":"2011 Cooling Centers","SymbolID":1,"AltitudeMode":-1,"Snippet":"","PopupInfo":"Accessible Cooling Center.<br>Open 8am-4pm M-F.","Accessible":1,"Hours":"Open 8am-4pm M-F.","Address":null,"City":null,"State":null,"Phone":null,"Restrictions":null,"ZIP":63077}}
,{"type":"Feature","geometry":{"type":"Point","coordinates":[-90.9810789999668,38.352393999829,0]},"properties":{"Name":"St Clair Ambulance District","FolderPath":"2011 Cooling Centers","SymbolID":0,"AltitudeMode":-1,"Snippet":"","PopupInfo":"Cooling Center.<br>Open 7am-7pm M-F.<br>Call in advance.","Accessible":2,"Hours":"Open 7am-7pm M-F.","Address":null,"City":null,"State":null,"Phone":null,"Restrictions":null,"ZIP":63077}}
,{"type":"Feature","geometry":{"type":"Point","coordinates":[-90.9865189999664,38.3478619998293,0]},"properties":{"Name":"St Clair Elks Lodge","FolderPath":"2011 Cooling Centers","SymbolID":0,"AltitudeMode":-1,"Snippet":"","PopupInfo":"Cooling Center.<br>Call in advance.<br>","Accessible":2,"Hours":null,"Address":null,"City":null,"State":null,"Phone":null,"Restrictions":null,"ZIP":63077}}
,{"type":"Feature","geometry":{"type":"Point","coordinates":[-91.167808999954,38.204574999839,0]},"properties":{"Name":"Sullivan Senior Center - MEAAA","FolderPath":"2011 Cooling Centers","SymbolID":1,"AltitudeMode":-1,"Snippet":"","PopupInfo":"Accessible Cooling Center.<br>Open 9am-3pm M-F.","Accessible":1,"Hours":"Open 9am-3pm M-F.","Address":null,"City":null,"State":null,"Phone":null,"Restrictions":null,"ZIP":63080}}
,{"type":"Feature","geometry":{"type":"Point","coordinates":[-91.0102919999647,38.4595449998218,0]},"properties":{"Name":"County Seat Senior Center - MEAAA","FolderPath":"2011 Cooling Centers","SymbolID":1,"AltitudeMode":-1,"Snippet":"","PopupInfo":"Accessible Cooling Center.<br>Open 9am-3pm M-F.","Accessible":1,"Hours":"Open 9am-3pm M-F.","Address":null,"City":null,"State":null,"Phone":null,"Restrictions":null,"ZIP":63084}}
,{"type":"Feature","geometry":{"type":"Point","coordinates":[-91.0331729999631,38.5552519998154,0]},"properties":{"Name":"Washington Senior Center - MEAAA","FolderPath":"2011 Cooling Centers","SymbolID":1,"AltitudeMode":-1,"Snippet":"","PopupInfo":"Accessible Cooling Center.<br>Open 8am-3pm M-F.","Accessible":1,"Hours":"Open 8am-3pm M-F.","Address":null,"City":null,"State":null,"Phone":null,"Restrictions":null,"ZIP":63090}}
,{"type":"Feature","geometry":{"type":"Point","coordinates":[-90.2037280000205,38.6303289998103,0]},"properties":{"Name":"The Bridge - Centenary United Methodist Church","FolderPath":"2011 Cooling Centers","SymbolID":0,"AltitudeMode":-1,"Snippet":"","PopupInfo":"Cooling Center.<br>Open 7am-6pm Mon-Thu.<br>7am-2pm Fri.<br>4pm-6pm Sun.<br>Meals are available.","Accessible":2,"Hours":"Open 7am-6pm Mon-Thu.","Address":null,"City":null,"State":null,"Phone":null,"Restrictions":null,"ZIP":63103}}
,{"type":"Feature","geometry":{"type":"Point","coordinates":[-90.1978610000209,38.6305469998103,0]},"properties":{"Name":"Christ Church Cathedral","FolderPath":"2011 Cooling Centers","SymbolID":1,"AltitudeMode":-1,"Snippet":"","PopupInfo":"Accessible Cooling Center.<br>Open 9am-4pm Mon-Thu.<br>9am-12pm Fri.<br>7:30am-12pm Sun.","Accessible":1,"Hours":"Open 9am-4pm Mon-Thu.","Address":null,"City":null,"State":null,"Phone":null,"Restrictions":null,"ZIP":63103}}
,{"type":"Feature","geometry":{"type":"Point","coordinates":[-90.2285920000187,38.6197009998111,0]},"properties":{"Name":"Southside Wellness Center - SLAAA","FolderPath":"2011 Cooling Centers","SymbolID":1,"AltitudeMode":-1,"Snippet":"","PopupInfo":"Accessible Cooling Center.<br>Open 8am-6pm M-F.<br>ID Required.","Accessible":1,"Hours":"Open 8am-6pm M-F.","Address":null,"City":null,"State":null,"Phone":null,"Restrictions":null,"ZIP":63104}}
,{"type":"Feature","geometry":{"type":"Point","coordinates":[-90.2213750000193,38.6145059998114,0]},"properties":{"Name":"St Louis Public Library: Barr Branch","FolderPath":"2011 Cooling Centers","SymbolID":0,"AltitudeMode":-1,"Snippet":"","PopupInfo":"Cooling Center.<br>Open 9am-6pm Mon & Sat.<br>12pm-7pm Tue-Thu.<br>11am-6pm Fri.","Accessible":2,"Hours":"Open 9am-6pm Mon & Sat.","Address":null,"City":null,"State":null,"Phone":null,"Restrictions":null,"ZIP":63104}}
,{"type":"Feature","geometry":{"type":"Point","coordinates":[-90.21177700002,38.6675869998077,0]},"properties":{"Name":"St Louis Public Library: Divoll Branch","FolderPath":"2011 Cooling Centers","SymbolID":0,"AltitudeMode":-1,"Snippet":"","PopupInfo":"Cooling Center.<br>Open 9am-6pm Mon & Sat.<br>12pm-7pm Tue-Thu.<br>11am-6pm Fri.","Accessible":2,"Hours":"Open 9am-6pm Mon & Sat.","Address":null,"City":null,"State":null,"Phone":null,"Restrictions":null,"ZIP":63107}}
,{"type":"Feature","geometry":{"type":"Point","coordinates":[-90.2618480000165,38.6435809998094,0]},"properties":{"Name":"St Louis Public Library: Schlafly Branch","FolderPath":"2011 Cooling Centers","SymbolID":0,"AltitudeMode":-1,"Snippet":"","PopupInfo":"Cooling Center.<br>Open 9am-9pm Mon-Thu.<br>12pm-6pm Fir-Sat.<br>1pm-5pm Sun.","Accessible":2,"Hours":"Open 9am-9pm Mon-Thu.","Address":null,"City":null,"State":null,"Phone":null,"Restrictions":null,"ZIP":63108}}
,{"type":"Feature","geometry":{"type":"Point","coordinates":[-90.2948460000142,38.590304999813,0]},"properties":{"Name":"St Louis Public Library: Buder Branch","FolderPath":"2011 Cooling Centers","SymbolID":0,"AltitudeMode":-1,"Snippet":"","PopupInfo":"Cooling Center.<br>Open 9am-9pm Mon-Thu.<br>12pm-6pm Fir-Sat.<br>1pm-5pm Sun.","Accessible":2,"Hours":"Open 9am-9pm Mon-Thu.","Address":null,"City":null,"State":null,"Phone":null,"Restrictions":null,"ZIP":63109}}
,{"type":"Feature","geometry":{"type":"Point","coordinates":[-90.2667920000161,38.6128809998114,0]},"properties":{"Name":"St Louis Public Library: Kingshighway Branch","FolderPath":"2011 Cooling Centers","SymbolID":0,"AltitudeMode":-1,"Snippet":"","PopupInfo":"Cooling Center.<br>Open 9am-6pm Mon & Sat.<br>12pm-7pm Tue-Thu.<br>11am-6pm Fri.","Accessible":2,"Hours":"Open 9am-6pm Mon & Sat.","Address":null,"City":null,"State":null,"Phone":null,"Restrictions":null,"ZIP":63110}}
,{"type":"Feature","geometry":{"type":"Point","coordinates":[-90.2519070000171,38.5527729998155,0]},"properties":{"Name":"Human Development Corp: Southside Gateway Center","FolderPath":"2011 Cooling Centers","SymbolID":1,"AltitudeMode":-1,"Snippet":"","PopupInfo":"Accessible Cooling Center.<br>Open 8:30am-5pm Mon-Fri","Accessible":1,"Hours":"Open 8:30am-5pm Mon-Fri","Address":null,"City":null,"State":null,"Phone":null,"Restrictions":null,"ZIP":63111}}
,{"type":"Feature","geometry":{"type":"Point","coordinates":[-90.2636800000163,38.546370999816,0]},"properties":{"Name":"Grace Hill Settlement House - Patch Neighborhood - SLAAA","FolderPath":"2011 Cooling Centers","SymbolID":1,"AltitudeMode":-1,"Snippet":"","PopupInfo":"Accessible Cooling Center.<br>Open 9am-2pm Mon-Fri.","Accessible":1,"Hours":"Open 9am-2pm Mon-Fri.","Address":null,"City":null,"State":null,"Phone":null,"Restrictions":null,"ZIP":63111}}
,{"type":"Feature","geometry":{"type":"Point","coordinates":[-90.2498400000173,38.6582299998084,0]},"properties":{"Name":"Human Development Corporation - Northside Gateway Center","FolderPath":"2011 Cooling Centers","SymbolID":0,"AltitudeMode":-1,"Snippet":"","PopupInfo":"Cooling Center.<br>Open 8:30am-5pm Mon-Fri.","Accessible":2,"Hours":"Open 8:30am-5pm Mon-Fri.","Address":null,"City":null,"State":null,"Phone":null,"Restrictions":null,"ZIP":63113}}
,{"type":"Feature","geometry":{"type":"Point","coordinates":[-90.2724300000158,38.6573909998085,0]},"properties":{"Name":"St Louis Public Library: Cabene Branch","FolderPath":"2011 Cooling Centers","SymbolID":0,"AltitudeMode":-1,"Snippet":"","PopupInfo":"Cooling Center.<br>Open 9am-6pm Mon & Sat.<br>12pm-7pm Tue-Thu.<br>11am-6pm Fri.","Accessible":2,"Hours":"Open 9am-6pm Mon & Sat.","Address":null,"City":null,"State":null,"Phone":null,"Restrictions":null,"ZIP":63113}}
,{"type":"Feature","geometry":{"type":"Point","coordinates":[-90.2325590000185,38.6591839998083,0]},"properties":{"Name":"Northside Community Center Inc - SLAAA","FolderPath":"2011 Cooling Centers","SymbolID":1,"AltitudeMode":-1,"Snippet":"","PopupInfo":"Accessible Cooling Center.<br>Open 8am-5pm Mon-Fri.","Accessible":1,"Hours":"Open 8am-5pm Mon-Fri.","Address":null,"City":null,"State":null,"Phone":null,"Restrictions":null,"ZIP":63113}}
,{"type":"Feature","geometry":{"type":"Point","coordinates":[-90.254234000017,38.6672939998078,0]},"properties":{"Name":"Salvation Army - Euclid Corps","FolderPath":"2011 Cooling Centers","SymbolID":1,"AltitudeMode":-1,"Snippet":"","PopupInfo":"Accessible Cooling Center.<br>Open 8am-4:30pm Mon-Fri.","Accessible":1,"Hours":"Open 8am-4:30pm Mon-Fri.","Address":null,"City":null,"State":null,"Phone":null,"Restrictions":null,"ZIP":63113}}
,{"type":"Feature","geometry":{"type":"Point","coordinates":[-90.2616350000165,38.6619299998082,0]},"properties":{"Name":"Union Sarah - SLAAA","FolderPath":"2011 Cooling Centers","SymbolID":1,"AltitudeMode":-1,"Snippet":"","PopupInfo":"Accessible Cooling Center.<br>Open 9am-3pm","Accessible":1,"Hours":"Open 9am-3pm","Address":null,"City":null,"State":null,"Phone":null,"Restrictions":null,"ZIP":63113}}
,{"type":"Feature","geometry":{"type":"Point","coordinates":[-90.2569810000168,38.6696929998076,0]},"properties":{"Name":"Covenant House Missouri","FolderPath":"2011 Cooling Centers","SymbolID":0,"AltitudeMode":-1,"Snippet":"","PopupInfo":"Cooling Center.<br>Open 3pm-6pm M-F.<br>16 to 21 years only.<br>ID Required.<br><br>5017 Maffitt Avenue, St Louis, MO<br>(314) 533-2241","Accessible":2,"Hours":"Open 3pm-6pm M-F.","Address":null,"City":null,"State":null,"Phone":null,"Restrictions":null,"ZIP":63113}}
,{"type":"Feature","geometry":{"type":"Point","coordinates":[-90.2382810000181,38.6602939998083,0]},"properties":{"Name":"Tandy Recreation Center","FolderPath":"2011 Cooling Centers","SymbolID":0,"AltitudeMode":-1,"Snippet":"","PopupInfo":"Cooling Center.<br>Open 9am-4pm M-F.<br>12pm-5pm Sat.<br>","Accessible":2,"Hours":"Open 9am-4pm M-F.","Address":null,"City":null,"State":null,"Phone":null,"Restrictions":null,"ZIP":63113}}
,{"type":"Feature","geometry":{"type":"Point","coordinates":[-90.2627720000164,38.6651039998079,0]},"properties":{"Name":"Wohl Recreation Center","FolderPath":"2011 Cooling Centers","SymbolID":0,"AltitudeMode":-1,"Snippet":"","PopupInfo":"Cooling Center.<br>Open 9am-4pm M-F.<br>12pm-5pm Sat.<br>(314) 367-0055","Accessible":2,"Hours":"Open 9am-4pm M-F.","Address":null,"City":null,"State":null,"Phone":null,"Restrictions":null,"ZIP":63113}}
,{"type":"Feature","geometry":{"type":"Point","coordinates":[-90.2370380000182,38.6764259998072,0]},"properties":{"Name":"Wesley House - SLAAA","FolderPath":"2011 Cooling Centers","SymbolID":0,"AltitudeMode":-1,"Snippet":"","PopupInfo":"Cooling Center.<br>Open 9am-5:30pm M-F.","Accessible":2,"Hours":"Open 9am-5:30pm M-F.","Address":null,"City":null,"State":null,"Phone":null,"Restrictions":null,"ZIP":63115}}
,{"type":"Feature","geometry":{"type":"Point","coordinates":[-90.2368550000182,38.6704289998076,0]},"properties":{"Name":"St Louis Public Library: Julia Davis Branch","FolderPath":"2011 Cooling Centers","SymbolID":0,"AltitudeMode":-1,"Snippet":"","PopupInfo":"Cooling Center.<br>Open 9am-9pm Mon-Thu.<br>9am-6pm Fri-Sat.<br>1pm-5pm Sun.","Accessible":2,"Hours":"Open 9am-9pm Mon-Thu.","Address":null,"City":null,"State":null,"Phone":null,"Restrictions":null,"ZIP":63115}}
,{"type":"Feature","geometry":{"type":"Point","coordinates":[-90.2722850000157,38.5867079998132,0]},"properties":{"Name":"Bevo Area Senior Center - SLAAA","FolderPath":"2011 Cooling Centers","SymbolID":1,"AltitudeMode":-1,"Snippet":"","PopupInfo":"Accessible Cooling Center.<br>Open 7 am-4:30pm M-F.","Accessible":1,"Hours":"Open 8:30am to 3:30 pm M-F.","Address":"4705 Ridgewood Ave","City":"St Louis","State":"MO","Phone":"3143520141","Restrictions":null,"ZIP":63116}}
,{"type":"Feature","geometry":{"type":"Point","coordinates":[-90.2579570000167,38.6019779998122,0]},"properties":{"Name":"Grand Oak Hill Community Corporation - SLAAA","FolderPath":"2011 Cooling Centers","SymbolID":1,"AltitudeMode":-1,"Snippet":"","PopupInfo":"Accessible Cooling Center.<br>Open 9am-4pm M-F.","Accessible":1,"Hours":"Open 9am-4pm M-F.","Address":null,"City":null,"State":null,"Phone":null,"Restrictions":null,"ZIP":63116}}
,{"type":"Feature","geometry":{"type":"Point","coordinates":[-90.2279890000188,38.5999719998123,0]},"properties":{"Name":"The Salvation Army Temple Corps and Community Center","FolderPath":"2011 Cooling Centers","SymbolID":1,"AltitudeMode":-1,"Snippet":"","PopupInfo":"Accessible Cooling Center.<br>Open 8am--4pm M-F.","Accessible":1,"Hours":"Open 8am--4pm M-F.","Address":null,"City":null,"State":null,"Phone":null,"Restrictions":null,"ZIP":63118}}
,{"type":"Feature","geometry":{"type":"Point","coordinates":[-90.2300030000187,38.6003109998123,0]},"properties":{"Name":"Five Star Senior Center - SLAAA","FolderPath":"2011 Cooling Centers","SymbolID":1,"AltitudeMode":-1,"Snippet":"","PopupInfo":"Cooling Center.<br>Open 8am-3pm M-F.","Accessible":1,"Hours":"Open 8am-3pm M-F.","Address":null,"City":null,"State":null,"Phone":null,"Restrictions":null,"ZIP":63118}}
,{"type":"Feature","geometry":{"type":"Point","coordinates":[-90.2431260000178,38.5970189998125,0]},"properties":{"Name":"St Louis Public Library: Carpenter Branch","FolderPath":"2011 Cooling Centers","SymbolID":0,"AltitudeMode":-1,"Snippet":"","PopupInfo":"Cooling Center.<br>Open 9am-9pm Mon-Thu.<br>9am-6pm Fri & Sat.","Accessible":2,"Hours":"Open 9am-9pm Mon-Thu.","Address":null,"City":null,"State":null,"Phone":null,"Restrictions":null,"ZIP":63116}}
,{"type":"Feature","geometry":{"type":"Point","coordinates":[-90.3342970000114,38.5762829998139,0]},"properties":{"Name":"Shrewsbury Senior Center","FolderPath":"2011 Cooling Centers","SymbolID":1,"AltitudeMode":-1,"Snippet":"","PopupInfo":"Cooling Center.<br>Open 9am-3pm M-F.","Accessible":1,"Hours":"Open 9am-3pm M-F.","Address":null,"City":null,"State":null,"Phone":null,"Restrictions":null,"ZIP":63119}}
,{"type":"Feature","geometry":{"type":"Point","coordinates":[-90.2453380000176,38.6951329998059,0]},"properties":{"Name":"San Francisco Temple Multiplex Senior Center - SLAAA","FolderPath":"2011 Cooling Centers","SymbolID":1,"AltitudeMode":-1,"Snippet":"","PopupInfo":"Accessible Cooling Center.<br>Senior Citizens only.<br>Open 6am-8pm M-F.<br>(314) 381-7819","Accessible":1,"Hours":"Open 6am-8pm M-F.","Address":null,"City":null,"State":null,"Phone":null,"Restrictions":null,"ZIP":63120}}
,{"type":"Feature","geometry":{"type":"Point","coordinates":[-90.2470020000175,38.7039759998054,0]},"properties":{"Name":"St Louis Public Library: Walnut Park Branch","FolderPath":"2011 Cooling Centers","SymbolID":0,"AltitudeMode":-1,"Snippet":"","PopupInfo":"Cooling Center.<br>Open 9am-6pm Mon & Sat<br>12pm-7pm Tue-Thu.<br>11am-6pm Fri.","Accessible":2,"Hours":"Open 9am-6pm Mon & Sat","Address":null,"City":null,"State":null,"Phone":null,"Restrictions":null,"ZIP":63120}}
,{"type":"Feature","geometry":{"type":"Point","coordinates":[-90.2742000000156,38.6955829998059,0]},"properties":{"Name":"North Central Community Health Center","FolderPath":"2011 Cooling Centers","SymbolID":0,"AltitudeMode":-1,"Snippet":"","PopupInfo":"Cooling Center.<br>Open 8am-5pm Mon, Tue, & Fri.<br>8am-9pm Wed-Thu.","Accessible":2,"Hours":"Open 8am-5pm Mon, Tue, & Fri.","Address":null,"City":null,"State":null,"Phone":null,"Restrictions":null,"ZIP":63120}}
,{"type":"Feature","geometry":{"type":"Point","coordinates":[-90.3251420000121,38.5414849998163,0]},"properties":{"Name":"Affton White Rodgers Senior Center - MEAAA","FolderPath":"2011 Cooling Centers","SymbolID":1,"AltitudeMode":-1,"Snippet":"","PopupInfo":"Accessible Cooling Center.<br>Open 8am-10pm Mon-Thu.<br>8am-5pm Fri.<br>12pm-8pm Sat-Sun.","Accessible":1,"Hours":"Open 8am-10pm Mon-Thu.","Address":null,"City":null,"State":null,"Phone":null,"Restrictions":"St Louis County","ZIP":63123}}
,{"type":"Feature","geometry":{"type":"Point","coordinates":[-90.2810060000152,38.5201759998177,0]},"properties":{"Name":"Feed My People","FolderPath":"2011 Cooling Centers","SymbolID":1,"AltitudeMode":-1,"Snippet":"","PopupInfo":"Accessible Cooling Center.<br>Open 7:30am-3pm M-F.<br>8:30am-1pm Sat.","Accessible":1,"Hours":"Open 7:30am-3pm M-F.","Address":null,"City":null,"State":null,"Phone":null,"Restrictions":null,"ZIP":63049}}
,{"type":"Feature","geometry":{"type":"Point","coordinates":[-90.2784420000153,38.5327029998168,0]},"properties":{"Name":"South County Senior Center - MEAAA","FolderPath":"2011 Cooling Centers","SymbolID":1,"AltitudeMode":-1,"Snippet":"","PopupInfo":"Accessible Cooling Center.<br>Open 8am-3:30pm M-F.","Accessible":1,"Hours":"Open 8am-3:30pm M-F.","Address":null,"City":null,"State":null,"Phone":null,"Restrictions":null,"ZIP":63125}}
,{"type":"Feature","geometry":{"type":"Point","coordinates":[-90.3814770000082,38.5324129998169,0]},"properties":{"Name":"County of St. Louis: South County Health Center","FolderPath":"2011 Cooling Centers","SymbolID":0,"AltitudeMode":-1,"Snippet":"","PopupInfo":"Cooling Center.<br>Open 8am-9pm Mon-Tue.<br>8am-5pm Wed-Fri.","Accessible":2,"Hours":"Open 8am-9pm Mon-Tue.","Address":null,"City":null,"State":null,"Phone":null,"Restrictions":null,"ZIP":63126}}
,{"type":"Feature","geometry":{"type":"Point","coordinates":[-90.398743000007,38.6918259998061,0]},"properties":{"Name":"Salvation Army - Family Haven","FolderPath":"2011 Cooling Centers","SymbolID":0,"AltitudeMode":-1,"Snippet":"","PopupInfo":"Cooling Center.<br>Open 8am-12pm and 1pm-4:15pm Mon, Tue, Thu, & Fri.<br><br>10740 West Page Ave<br>St Louis, MO 63132<br>(314) 423-7770","Accessible":2,"Hours":"Open 8am-12pm and 1pm-4:15pm Mon, Tue, Thu, & Fri.","Address":null,"City":null,"State":null,"Phone":null,"Restrictions":null,"ZIP":63132}}
,{"type":"Feature","geometry":{"type":"Point","coordinates":[-90.2893070000146,38.6769869998071,0]},"properties":{"Name":"Human Development Corporation - Well","FolderPath":"2011 Cooling Centers","SymbolID":1,"AltitudeMode":-1,"Snippet":"","PopupInfo":"Accessible Cooling Center.<br>Open 8:30am-5pm M-F.<br>","Accessible":1,"Hours":"Open 8:30am-5pm M-F.","Address":null,"City":null,"State":null,"Phone":null,"Restrictions":null,"ZIP":63133}}
,{"type":"Feature","geometry":{"type":"Point","coordinates":[-90.3271940000119,38.6830219998067,0]},"properties":{"Name":"Mt Beulah Missionary Baptist Church","FolderPath":"2011 Cooling Centers","SymbolID":0,"AltitudeMode":-1,"Snippet":"","PopupInfo":"Cooling Center.<br>Open 8am-6pm Mon-Sat.<br>","Accessible":2,"Hours":"Open 8am-6pm Mon-Sat.","Address":null,"City":null,"State":null,"Phone":null,"Restrictions":null,"ZIP":63133}}
,{"type":"Feature","geometry":{"type":"Point","coordinates":[-90.2412640000179,38.7395059998029,0]},"properties":{"Name":"Northside Senior Center at Northside Christian Church - MEAAA","FolderPath":"2011 Cooling Centers","SymbolID":1,"AltitudeMode":-1,"Snippet":"","PopupInfo":"Accessible Cooling Center.<br>Open 9am-3pm M-F.","Accessible":1,"Hours":"Open 9am-3pm M-F.","Address":null,"City":null,"State":null,"Phone":null,"Restrictions":null,"ZIP":63136}}
,{"type":"Feature","geometry":{"type":"Point","coordinates":[-90.297752000014,38.604857999812,0]},"properties":{"Name":"St Louis Public Library: Machacek Branch","FolderPath":"2011 Cooling Centers","SymbolID":0,"AltitudeMode":-1,"Snippet":"","PopupInfo":"Cooling Center.<br>Open 12pm-9pm M & W, 9am-6pm TU, TH-SA.<br>Operation Weather Survival.<br><br>6424 Scanlan Avenue<br>St Louis, MO 63139-2402<br>(314) 781-2948<br><a href=\"http://slpl.org\">slpl.org</a>","Accessible":2,"Hours":"Open 12pm-9pm M & W, 9am-6pm TU, TH-SA.","Address":null,"City":null,"State":null,"Phone":null,"Restrictions":null,"ZIP":63139}}
,{"type":"Feature","geometry":{"type":"Point","coordinates":[-90.282265000015,38.6061289998119,0]},"properties":{"Name":"St Louis Senior Center - SLAAA","FolderPath":"2011 Cooling Centers","SymbolID":1,"AltitudeMode":-1,"Snippet":"","PopupInfo":"Accessible Cooling Center.<br>Open 8:30am-6:30pm M-F.","Accessible":1,"Hours":"Open 8:30am-6:30pm M-F.","Address":null,"City":null,"State":null,"Phone":null,"Restrictions":null,"ZIP":63139}}
,{"type":"Feature","geometry":{"type":"Point","coordinates":[-90.326622000012,38.6167789998112,0]},"properties":{"Name":"Salvation Army - Maplewood Corps","FolderPath":"2011 Cooling Centers","SymbolID":0,"AltitudeMode":-1,"Snippet":"","PopupInfo":"Cooling Center.<br>Open 8:30am-4:30pm M-F.","Accessible":2,"Hours":"Open 8:30am-4:30pm M-F.","Address":null,"City":null,"State":null,"Phone":null,"Restrictions":null,"ZIP":63143}}
,{"type":"Feature","geometry":{"type":"Point","coordinates":[-90.3495180000104,38.6161079998112,0]},"properties":{"Name":"Brentwood Recreational Complex","FolderPath":"2011 Cooling Centers","SymbolID":0,"AltitudeMode":-1,"Snippet":"","PopupInfo":"Cooling Center.<br>Open 6am-10pm M-F.","Accessible":2,"Hours":"Open 6am-10pm M-F.","Address":null,"City":null,"State":null,"Phone":null,"Restrictions":"Cancelled","ZIP":63144}}
,{"type":"Feature","geometry":{"type":"Point","coordinates":[-90.2324750000185,38.7110599998048,0]},"properties":{"Name":"Father Tolton Senior Center - SLAAA","FolderPath":"2011 Cooling Centers","SymbolID":1,"AltitudeMode":-1,"Snippet":"","PopupInfo":"Accessible Cooling Center.<br>Open 9am-5pm M-F.<br><br>\n<a href=\"http://www.ccstl.org/father-tolton-center.html\">http://www.ccstl.org/father-tolton-center.html</a>","Accessible":1,"Hours":"Open 9am-5pm M-F.","Address":null,"City":null,"State":null,"Phone":null,"Restrictions":null,"ZIP":63147}}
,{"type":"Feature","geometry":{"type":"Point","coordinates":[-90.2330250000185,38.7149119998046,0]},"properties":{"Name":"St Louis Public Library: Baden Branch","FolderPath":"2011 Cooling Centers","SymbolID":0,"AltitudeMode":-1,"Snippet":"","PopupInfo":"Cooling Center.<br>Open 9am-6pm Mon & Sat.<br>12pm-7pm Tue-Thu.<br>11am-6pm Fri.","Accessible":2,"Hours":"Open 9am-6pm Mon & Sat.","Address":null,"City":null,"State":null,"Phone":null,"Restrictions":null,"ZIP":63147}}
,{"type":"Feature","geometry":{"type":"Point","coordinates":[-90.499916,38.7717089998007,0]},"properties":{"Name":"St Charles Senior Center - MEAAA","FolderPath":"2011 Cooling Centers","SymbolID":1,"AltitudeMode":-1,"Snippet":"","PopupInfo":"Accessible Cooling Center.<br>Open 9am-3pm M-F.<br>(636) 949-0658<br>Meals available for a fee.","Accessible":1,"Hours":"Open 9am-3pm M-F.","Address":null,"City":null,"State":null,"Phone":null,"Restrictions":null,"ZIP":63301}}
,{"type":"Feature","geometry":{"type":"Point","coordinates":[-90.7833179999802,39.1664959997743,0]},"properties":{"Name":"Lincoln County Council on Aging - Elsberry Nutrition Center","FolderPath":"2011 Cooling Centers","SymbolID":1,"AltitudeMode":-1,"Snippet":"","PopupInfo":"Accessible Cooling Center.<br>Open 8:30am-2:30pm M-F.","Accessible":1,"Hours":"Open 8:30am-2:30pm M-F.","Address":null,"City":null,"State":null,"Phone":null,"Restrictions":null,"ZIP":63343}}
,{"type":"Feature","geometry":{"type":"Point","coordinates":[-91.5061039999299,38.9772069997873,0]},"properties":{"Name":"Montgomery City Library","FolderPath":"2011 Cooling Centers","SymbolID":0,"AltitudeMode":-1,"Snippet":"","PopupInfo":"Cooling Center.<br>Open 8am-8pm Mon.<br>8am-6:30pm Tue & Thu.<br>8am-5pm Wed & Fri.","Accessible":2,"Hours":"Open 8am-8pm Mon.","Address":null,"City":null,"State":null,"Phone":null,"Restrictions":null,"ZIP":63361}}
,{"type":"Feature","geometry":{"type":"Point","coordinates":[-90.6998519999861,38.8117369997981,0]},"properties":{"Name":"O'Fallon Senior Center - MEAAA","FolderPath":"2011 Cooling Centers","SymbolID":1,"AltitudeMode":-1,"Snippet":"","PopupInfo":"Accessible Cooling Site.<br>Open 9am-3pm M-F.","Accessible":1,"Hours":"Open 9am-3pm M-F.","Address":null,"City":null,"State":null,"Phone":null,"Restrictions":null,"ZIP":63366}}
,{"type":"Feature","geometry":{"type":"Point","coordinates":[-90.6901859999868,38.7997319997989,0]},"properties":{"Name":"The Salvation Army - O'Fallon Corps","FolderPath":"2011 Cooling Centers","SymbolID":0,"AltitudeMode":-1,"Snippet":"","PopupInfo":"Cooling Center.<br>Open 8am-4pm M-F.<br>","Accessible":2,"Hours":"Open 8am-4pm M-F.","Address":null,"City":null,"State":null,"Phone":null,"Restrictions":null,"ZIP":63366}}
,{"type":"Feature","geometry":{"type":"Point","coordinates":[-90.6213679999915,38.7923129997994,0]},"properties":{"Name":"St Peters Senior Center - MEAAA","FolderPath":"2011 Cooling Centers","SymbolID":1,"AltitudeMode":-1,"Snippet":"","PopupInfo":"Accessible Cooling Center.<br>Open 9am-3pm M-F.","Accessible":1,"Hours":"Open 9am-3pm M-F.","Address":null,"City":null,"State":null,"Phone":null,"Restrictions":null,"ZIP":63376}}
,{"type":"Feature","geometry":{"type":"Point","coordinates":[-91.0163729999639,39.1845969997731,0]},"properties":{"Name":"Lincoln County Council on Aging - Silex Senior Center","FolderPath":"2011 Cooling Centers","SymbolID":1,"AltitudeMode":-1,"Snippet":"","PopupInfo":"Accessible Cooling Center.<br>Open 8:30am-2:30pm M-F","Accessible":1,"Hours":"Open 8:30am-2:30pm M-F","Address":null,"City":null,"State":null,"Phone":null,"Restrictions":null,"ZIP":63377}}
,{"type":"Feature","geometry":{"type":"Point","coordinates":[-91.001029999965,38.9745899997872,0]},"properties":{"Name":"Lincoln County Council on Aging","FolderPath":"2011 Cooling Centers","SymbolID":1,"AltitudeMode":-1,"Snippet":"","PopupInfo":"Accessible Cooling Center.<br>Open 8am-2:30pm  M-F.","Accessible":1,"Hours":"Open 8am-2:30pm  M-F.","Address":null,"City":null,"State":null,"Phone":null,"Restrictions":null,"ZIP":63379}}
,{"type":"Feature","geometry":{"type":"Point","coordinates":[-91.1437609999552,38.8139569997981,0]},"properties":{"Name":"Warren County Council on Aging","FolderPath":"2011 Cooling Centers","SymbolID":1,"AltitudeMode":-1,"Snippet":"","PopupInfo":"Accessible Cooling Center.<br>Open 8am-2:30pm M-F","Accessible":1,"Hours":"Open 8am-2:30pm M-F","Address":null,"City":null,"State":null,"Phone":null,"Restrictions":null,"ZIP":63383}}
,{"type":"Feature","geometry":{"type":"Point","coordinates":[-91.5691299999254,39.0713809997809,0]},"properties":{"Name":"American Bank of Missouri","FolderPath":"2011 Cooling Centers","SymbolID":0,"AltitudeMode":-1,"Snippet":"","PopupInfo":"Cooling Center.<br>Open 8:30am-3:30pm M-F.<br>8am-3pm Sat.","Accessible":2,"Hours":"Open 8:30am-3:30pm M-F.","Address":null,"City":null,"State":null,"Phone":null,"Restrictions":"Cancelled","ZIP":63384}}
,{"type":"Feature","geometry":{"type":"Point","coordinates":[-91.5689619999254,39.071292999781,0]},"properties":{"Name":"Wellsville City Hall","FolderPath":"2011 Cooling Centers","SymbolID":0,"AltitudeMode":-1,"Snippet":"","PopupInfo":"Cooling Center.<br>Open 8am-4pm M-F.<br><br>110 West Hudson St, Wellsville, MO<br>(573)684-2184","Accessible":2,"Hours":"Open 8am-4pm M-F.","Address":null,"City":null,"State":null,"Phone":null,"Restrictions":null,"ZIP":63384}}
,{"type":"Feature","geometry":{"type":"Point","coordinates":[-90.8523639999755,38.8093379997982,0]},"properties":{"Name":"Wentzville Senior Center - MEAAA","FolderPath":"2011 Cooling Centers","SymbolID":1,"AltitudeMode":-1,"Snippet":"","PopupInfo":"Cooling Center.<br>Open 9am-3pm M-F.<br>Meals available for a fee.<br>ID Requested.","Accessible":1,"Hours":"Open 9am-3pm M-F.","Address":null,"City":null,"State":null,"Phone":null,"Restrictions":null,"ZIP":63385}}
,{"type":"Feature","geometry":{"type":"Point","coordinates":[-90.7395629999833,38.9977109997856,0]},"properties":{"Name":"Lincoln County Council on Aging - Winco Senior Center","FolderPath":"2011 Cooling Centers","SymbolID":1,"AltitudeMode":-1,"Snippet":"","PopupInfo":"Accessible Cooling Center.<br>Open 8:00am-3pm M-F.","Accessible":1,"Hours":"Open 8:00am-3pm M-F.","Address":null,"City":null,"State":null,"Phone":null,"Restrictions":null,"ZIP":63389}}
]}
